City_ID,City,Lat,Lng,Max Temp,Humidity,Cloudiness,Wind Speed,Country,Date
0,avarua,-21.2078,-159.775,22.03,83,75,6.69,CK,1667296547
1,meadow lake,34.8014,-106.5436,10.22,39,0,2.07,US,1667296548
2,paamiut,61.994,-49.6678,-1.19,72,95,11.24,GL,1667296549
3,hithadhoo,-0.6,73.0833,27.74,77,67,6.87,MV,1667296550
4,geraldton,-28.7667,114.6,19.23,63,0,9.77,AU,1667296511
5,punta arenas,-53.15,-70.9167,6.06,81,40,1.54,CL,1667296551
6,jamestown,42.097,-79.2353,14.77,94,100,2.06,US,1667296552
7,hambantota,6.1241,81.1185,30.19,74,40,7.72,LK,1667296553
8,buala,-8.145,159.5921,26.91,82,93,1.23,SB,1667296554
9,rikitea,-23.1203,-134.9692,21.79,73,100,10.23,PF,1667296555
10,faya,18.3851,42.4509,25.06,32,29,4.03,SA,1667296556
11,dikson,73.5069,80.5464,-5.26,78,100,4.58,RU,1667296557
12,macamic,48.7502,-78.9996,4.6,89,77,2.99,CA,1667296558
13,mar del plata,-38.0023,-57.5575,7.83,87,0,2.06,AR,1667296559
14,buraydah,26.326,43.975,32.25,12,78,7.48,SA,1667296560
15,cape town,-33.9258,18.4232,28.4,34,0,4.47,ZA,1667296520
16,la palma,33.8464,-118.0467,19.34,92,100,0.45,US,1667296561
17,lavrentiya,65.5833,-171.0,-4.86,94,100,7.28,RU,1667296562
18,puerto ayora,-0.7393,-90.3518,19.24,83,89,4.12,EC,1667296563
19,ballina,-28.8667,153.5667,20.01,60,2,3.47,AU,1667296564
20,hermanus,-34.4187,19.2345,22.67,44,12,9.73,ZA,1667296566
21,chapais,49.7834,-74.8492,0.88,90,55,3.03,CA,1667296567
22,atuona,-9.8,-139.0333,24.45,73,6,4.69,PF,1667296568
23,aklavik,68.2191,-135.0107,-22.25,100,91,0.7,CA,1667296569
24,port elizabeth,-33.918,25.5701,21.72,61,20,7.2,ZA,1667296570
25,bluff,-46.6,168.3333,18.78,40,100,9.98,NZ,1667296571
26,esperance,-33.8667,121.9,14.82,76,65,5.55,AU,1667296572
27,beringovskiy,63.05,179.3167,-4.8,93,100,17.24,RU,1667296573
28,grande prairie,55.1667,-118.8027,-4.9,68,0,1.03,CA,1667296297
29,santander,43.4647,-3.8044,17.62,80,40,0.45,ES,1667296575
30,torbay,47.6666,-52.7314,5.88,82,100,5.14,CA,1667296576
31,busselton,-33.65,115.3333,16.5,68,99,4.9,AU,1667296577
32,cefalu,38.0386,14.0229,21.97,74,0,0.45,IT,1667296578
33,corrooy,16.7962,120.4453,26.82,85,100,2.52,PH,1667296579
34,albany,42.6001,-73.9662,14.29,90,100,1.43,US,1667296564
35,rio gallegos,-51.6226,-69.2181,8.03,66,40,8.75,AR,1667296580
36,castro,-24.7911,-50.0119,10.95,98,100,3.63,BR,1667296581
37,fairbanks,64.8378,-147.7164,-14.67,88,51,1.1,US,1667296582
38,narsaq,60.9167,-46.05,-9.64,73,84,2.7,GL,1667296583
39,chokurdakh,70.6333,147.9167,-26.92,100,71,2.85,RU,1667296584
40,butaritari,3.0707,172.7902,27.37,75,8,6.17,KI,1667296585
41,husavik,66.0449,-17.3389,2.92,96,100,1.43,IS,1667296586
42,richland,40.7834,-82.5499,13.53,92,61,0.45,US,1667296592
43,nome,64.5011,-165.4064,-3.96,74,100,6.69,US,1667296593
44,namatanai,-3.6667,152.4333,27.53,77,26,1.69,PG,1667296594
45,dingle,10.9995,122.6711,25.66,86,68,4.41,PH,1667296595
46,carnarvon,-24.8667,113.6333,21.31,58,0,10.44,AU,1667296597
47,san cristobal,7.7669,-72.225,17.52,96,61,0.6,VE,1667296559
48,kavieng,-2.5744,150.7967,28.55,70,16,3.08,PG,1667296602
49,cockburn town,21.4612,-71.1419,27.95,75,3,7.4,TC,1667296603
50,qasigiannguit,68.8193,-51.1922,-7.51,92,96,4.7,GL,1667296603
51,broome,42.2506,-75.833,13.34,89,100,1.42,US,1667296605
52,noumea,-22.2763,166.4572,24.99,75,21,3.24,NC,1667296606
53,saldanha,-33.0117,17.9442,31.03,54,0,7.22,ZA,1667296609
54,kruisfontein,-34.0033,24.7314,20.49,45,15,9.83,ZA,1667296610
55,villa guerrero,18.8667,-99.65,16.82,91,0,1.56,MX,1667296612
56,guerrero negro,27.9769,-114.0611,18.27,79,47,1.53,MX,1667296616
57,khandagayty,50.7333,92.05,-0.33,86,100,1.68,RU,1667296619
58,severo-kurilsk,50.6789,156.125,2.05,72,37,3.73,RU,1667296438
59,cherskiy,68.75,161.3,-28.33,100,99,2.06,RU,1667296620
60,vanimo,-2.6741,141.3028,26.9,84,100,2.13,PG,1667296621
61,saskylakh,71.9167,114.0833,-5.87,88,100,6.85,RU,1667296623
62,richards bay,-28.783,32.0377,19.23,71,100,0.48,ZA,1667296625
63,kajaani,64.2273,27.7285,3.03,100,100,1.03,FI,1667296625
64,hobart,-42.8794,147.3294,8.92,82,75,2.57,AU,1667296514
65,juneau,58.3019,-134.4197,2.9,100,75,0.0,US,1667296353
66,itarema,-2.9248,-39.9167,26.97,70,98,5.74,BR,1667296630
67,nikolskoye,59.7035,30.7861,7.94,98,100,1.98,RU,1667296631
68,clyde river,70.4692,-68.5914,-16.87,55,0,1.03,CA,1667296633
69,vaini,-21.2,-175.2,25.09,94,75,1.54,TO,1667296634
70,kavaratti,10.5669,72.642,27.96,70,98,2.86,IN,1667296635
71,samarai,-10.6167,150.6667,28.39,81,55,4.27,PG,1667296637
72,hilo,19.7297,-155.09,22.36,95,100,2.06,US,1667296638
73,sorkjosen,69.8,20.9333,4.0,87,75,1.54,NO,1667296638
74,emmauss,56.7805,36.115,2.8,66,77,3.06,RU,1667296640
75,kaitangata,-46.2817,169.8464,15.38,52,100,4.14,NZ,1667296641
76,luderitz,-26.6481,15.1594,20.63,60,100,7.02,NA,1667296536
77,nanortalik,60.1432,-45.2371,-4.15,72,65,1.46,GL,1667296644
78,mataura,-46.1927,168.8643,18.6,54,100,2.79,NZ,1667296647
79,east london,-33.0153,27.9116,19.52,68,20,7.2,ZA,1667296548
80,bilibino,68.0546,166.4372,-31.99,100,80,0.93,RU,1667296652
81,upernavik,72.7868,-56.1549,-4.11,92,100,3.48,GL,1667296654
82,ancud,-41.8697,-73.8203,4.69,79,1,2.38,CL,1667296654
83,tuktoyaktuk,69.4541,-133.0374,-15.77,95,25,1.58,CA,1667296656
84,sorong,-0.8833,131.25,28.73,76,84,3.99,ID,1667296657
85,yumen,40.2833,97.2,10.54,22,70,8.89,CN,1667296659
86,kapaa,22.0752,-159.319,25.06,83,31,1.79,US,1667296660
87,vestmannaeyjar,63.4427,-20.2734,6.55,93,40,5.14,IS,1667296662
88,juba,4.8517,31.5825,35.24,33,26,2.06,SS,1667296663
89,eureka,40.8021,-124.1637,12.89,92,100,0.89,US,1667296665
90,dire dawa,9.5931,41.8661,29.06,19,4,4.68,ET,1667296666
91,kalyazin,57.2403,37.8433,1.16,77,98,3.83,RU,1667296667
92,itoman,26.1247,127.6694,22.21,88,75,8.23,JP,1667296667
93,airai,-8.9266,125.4092,18.62,91,100,0.13,TL,1667296668
94,kodiak,57.79,-152.4072,-2.18,63,8,3.4,US,1667296669
95,tshikapa,-6.4167,20.8,30.65,54,89,2.02,CD,1667296670
96,thompson,55.7435,-97.8558,-4.91,74,100,5.14,CA,1667296671
97,bredasdorp,-34.5322,20.0403,21.64,47,18,11.52,ZA,1667296671
98,nuuk,64.1835,-51.7216,-7.19,83,80,3.34,GL,1667296672
99,meulaboh,4.1363,96.1285,25.91,87,100,3.59,ID,1667296673
100,salalah,17.0151,54.0924,28.17,59,16,3.82,OM,1667296674
101,bonthe,7.5264,-12.505,28.89,68,66,0.9,SL,1667296676
102,matara,5.9485,80.5353,27.08,82,85,6.73,LK,1667296677
103,mount gambier,-37.8333,140.7667,6.88,78,79,6.29,AU,1667296678
104,baruun-urt,46.6806,113.2792,-3.78,50,90,3.53,MN,1667296678
105,ornskoldsvik,63.2909,18.7153,5.53,100,62,1.54,SE,1667296694
106,port lincoln,-34.7333,135.8667,11.94,55,25,10.22,AU,1667296695
107,falam,22.9167,93.6833,20.59,74,57,1.13,MM,1667296697
108,provideniya,64.3833,-173.3,-1.15,96,100,14.11,RU,1667296698
109,nhulunbuy,-12.2333,136.7667,30.34,74,51,4.12,AU,1667296700
110,jam sahib,26.2958,68.6292,37.17,19,0,5.22,PK,1667296703
111,alofi,-19.0595,-169.9187,23.94,100,100,1.54,NU,1667296703
112,chuy,-33.6971,-53.4616,9.71,66,91,3.48,UY,1667296705
113,charters towers,-20.1,146.2667,28.37,57,55,1.15,AU,1667296705
114,saint george,37.1041,-113.5841,14.64,29,100,1.77,US,1667296706
115,ushuaia,-54.8,-68.3,4.81,70,0,9.26,AR,1667296707
116,bengkulu,-3.8004,102.2655,26.25,84,91,1.22,ID,1667296708
117,bethel,41.3712,-73.414,15.11,88,100,0.45,US,1667296701
118,mahebourg,-20.4081,57.7,26.81,65,40,5.66,MU,1667296709
119,abong mbang,3.9833,13.1833,25.24,84,74,1.63,CM,1667296711
120,ostrovnoy,68.0531,39.5131,1.35,83,100,5.22,RU,1667296712
121,vila franca do campo,37.7167,-25.4333,17.23,75,86,3.27,PT,1667296712
122,pozoblanco,38.3791,-4.8483,18.64,59,1,0.71,ES,1667296714
123,shambu,9.5667,37.1,18.53,53,47,0.49,ET,1667296715
124,mehamn,71.0357,27.8492,3.97,87,75,8.75,NO,1667296715
125,tilichiki,60.4667,166.1,-17.93,87,4,5.13,RU,1667296716
126,pevek,69.7008,170.3133,-14.38,96,100,2.97,RU,1667296717
127,pangkalanbuun,-2.6833,111.6167,27.02,78,100,1.49,ID,1667296718
128,mitu,1.1983,-70.1733,22.17,96,77,0.51,CO,1667296719
129,ambilobe,-13.2,49.05,34.85,29,10,2.94,MG,1667296720
130,vanavara,60.34,102.2797,-7.88,91,77,1.94,RU,1667296720
131,ahipara,-35.1667,173.1667,14.95,90,54,1.88,NZ,1667296721
132,chumikan,54.7183,135.315,2.72,82,100,7.07,RU,1667296722
133,kaspiysk,42.8816,47.6392,11.1,61,40,11.18,RU,1667296723
134,touros,-5.1989,-35.4608,27.16,65,76,5.84,BR,1667296724
135,iqaluit,63.7506,-68.5145,-8.15,67,75,7.72,CA,1667296724
136,vardo,70.3705,31.1107,1.99,87,75,5.14,NO,1667296725
137,honiara,-9.4333,159.95,26.26,86,20,0.41,SB,1667296726
138,dalby,-27.1833,151.2667,18.32,63,31,6.31,AU,1667296727
139,nouadhibou,20.931,-17.0347,24.99,36,0,5.14,MR,1667296729
140,cabo san lucas,22.8909,-109.9124,23.62,78,3,1.87,MX,1667295969
141,ixtapa,20.7,-105.2,22.9,76,2,0.45,MX,1667296730
142,soyo,-6.1349,12.3689,27.43,76,97,3.0,AO,1667296731
143,flin flon,54.7682,-101.865,-3.91,64,26,2.35,CA,1667296732
144,tawang,27.5833,91.8667,11.9,59,17,2.41,IN,1667296732
145,cidreira,-30.1811,-50.2056,13.74,69,43,6.34,BR,1667296733
146,wynyard,-41.0,145.7167,7.77,70,52,5.28,AU,1667296734
147,rafaela,-31.2503,-61.4867,9.43,43,0,2.14,AR,1667296735
148,la ronge,55.1001,-105.2842,-1.86,86,40,4.12,CA,1667296735
149,new norfolk,-42.7826,147.0587,8.72,64,84,1.34,AU,1667296736
150,lasa,46.6166,10.7002,15.8,50,100,1.87,IT,1667296737
151,verkhnevilyuysk,63.4453,120.3167,-18.06,100,59,1.49,RU,1667296738
152,harqalah,36.0303,10.509,25.92,50,0,3.6,TN,1667296739
153,sao jose da coroa grande,-8.8978,-35.1478,26.07,76,70,2.95,BR,1667296739
154,sobolevo,54.4299,31.8996,3.21,71,100,2.1,RU,1667296740
155,kiama,-34.6833,150.8667,16.11,72,50,0.45,AU,1667296460
156,durant,33.994,-96.3708,14.73,83,0,0.0,US,1667296741
157,bahar,34.9072,48.4414,20.09,19,20,6.17,IR,1667296742
158,puerto leguizamo,-0.1934,-74.7819,21.56,96,32,0.77,CO,1667296743
159,flinders,-34.5833,150.8552,12.81,73,34,3.95,AU,1667296738
160,broken hill,-31.95,141.4333,11.21,49,68,10.47,AU,1667296744
161,asau,46.4333,26.4,13.51,45,42,1.49,RO,1667296745
162,ribeira grande,38.5167,-28.7,18.22,68,75,4.63,PT,1667296746
163,qaanaaq,77.484,-69.3632,-10.34,72,100,1.69,GL,1667296747
164,lompoc,34.6391,-120.4579,12.23,96,75,0.0,US,1667296748
165,plettenberg bay,-34.0527,23.3716,19.66,61,3,9.09,ZA,1667296749
166,norman wells,65.282,-126.8329,-17.98,85,75,1.03,CA,1667296504
167,shingu,33.7333,135.9833,17.58,93,100,3.55,JP,1667296753
168,amritsar,31.6331,74.8656,28.97,51,18,3.09,IN,1667296559
169,nurota,40.5614,65.6886,22.23,27,55,5.83,UZ,1667296755
170,sulangan,11.1373,123.7228,29.09,70,89,0.7,PH,1667296755
171,kumbo,6.2,10.6667,22.72,49,76,2.84,CM,1667296756
172,nampa,43.5407,-116.5635,14.91,53,0,2.06,US,1667296496
173,marzuq,14.4,46.4667,28.21,22,14,3.85,YE,1667296758
174,antsohihy,-14.8796,47.9875,35.71,26,1,1.06,MG,1667296759
175,sungaipenuh,-2.0833,101.3833,21.75,81,99,1.56,ID,1667296760
176,ponta do sol,32.6667,-17.1,23.34,83,96,1.91,PT,1667296761
177,muravlenko,63.7898,74.523,-1.52,95,100,5.28,RU,1667296762
178,hailar,49.2,119.7,-7.9,60,3,7.45,CN,1667296763
179,tasiilaq,65.6145,-37.6368,-0.8,97,100,5.26,GL,1667296763
180,arraial do cabo,-22.9661,-42.0278,23.92,88,75,5.14,BR,1667296764
181,katangli,51.7102,143.2326,4.47,82,100,2.85,RU,1667296765
182,ilulissat,69.2167,-51.1,-7.41,90,99,5.39,GL,1667296766
183,yellowknife,62.456,-114.3525,-9.69,85,100,2.57,CA,1667296767
184,college,64.8569,-147.8028,-15.82,92,50,1.1,US,1667296767
185,saint-philippe,-21.3585,55.7679,26.77,80,50,5.06,RE,1667296768
186,bontang,0.1333,117.5,27.27,83,100,3.1,ID,1667296769
187,hofn,64.2539,-15.2082,5.4,50,5,3.16,IS,1667296770
188,gwadar,25.1216,62.3254,29.03,59,5,6.48,PK,1667296771
189,pochutla,15.7432,-96.4661,22.12,79,1,1.79,MX,1667296771
190,sitka,57.0531,-135.33,2.88,82,82,1.65,US,1667296772
191,meghraj,23.5,73.5,32.23,21,0,3.64,IN,1667296773
192,roald,62.5833,6.1333,13.52,62,0,2.06,NO,1667296774
193,mayo,38.8876,-76.5119,16.09,97,20,1.54,US,1667296775
194,mikhaylovka,50.06,43.2379,5.44,80,100,7.54,RU,1667296775
195,sinazongwe,-17.2614,27.4618,29.77,50,100,3.44,ZM,1667296776
196,barrow,71.2906,-156.7887,-11.99,92,40,4.63,US,1667296778
197,kudahuvadhoo,2.6708,72.8944,27.68,74,61,7.03,MV,1667296779
198,camp verde,34.5636,-111.8543,14.51,36,100,1.16,US,1667296779
199,tessalit,20.1986,1.0114,28.82,15,58,6.18,ML,1667296781
200,tiksi,71.6872,128.8694,-18.72,98,42,3.75,RU,1667296782
201,torbat-e jam,35.244,60.6225,28.06,16,41,7.66,IR,1667296782
202,pisco,-13.7,-76.2167,15.03,88,100,2.57,PE,1667296783
203,heihe,50.2441,127.4902,0.32,58,100,5.59,CN,1667296784
204,townsville,-19.25,146.8,28.49,84,75,3.09,AU,1667296683
205,bairiki,1.3292,172.9752,27.0,83,20,4.12,KI,1667296785
206,duvan,55.695,57.9024,1.48,94,100,4.55,RU,1667296786
207,sur,22.5667,59.5289,31.66,36,0,2.66,OM,1667296787
208,ulagan,50.6321,87.9563,1.92,61,100,1.44,RU,1667296788
209,margate,51.3813,1.3862,16.06,81,77,4.02,GB,1667296789
210,el cope,8.6167,-80.6,19.06,94,96,0.19,PA,1667296789
211,zhangye,38.9342,100.4517,11.29,34,90,5.32,CN,1667296790
212,lusambo,-4.9667,23.45,33.73,43,90,1.14,CD,1667296791
213,praya,14.9215,-23.5087,26.3,65,0,5.66,CV,1667296792
214,stornoway,58.2093,-6.3865,11.98,85,20,3.09,GB,1667296632
215,redwater,33.3582,-94.2544,12.96,79,100,0.91,US,1667296793
216,tuatapere,-46.1333,167.6833,14.17,51,100,6.21,NZ,1667296794
217,nyurba,63.2842,118.3319,-15.72,99,67,1.77,RU,1667296795
218,altay,47.8667,88.1167,3.8,60,40,0.86,CN,1667296795
219,san felipe,10.3399,-68.7425,21.77,99,66,0.33,VE,1667296796
220,morondava,-20.2833,44.2833,29.02,63,3,6.41,MG,1667296797
221,terney,45.0503,136.6092,7.03,84,100,3.52,RU,1667296798
222,churapcha,62.0025,132.4325,-8.86,95,100,3.41,RU,1667296799
223,biak,-0.9131,122.8766,26.37,81,90,0.79,ID,1667296799
224,dong hoi,17.4833,106.6,23.13,70,83,5.6,VN,1667296802
225,mandan,46.8267,-100.8896,5.56,70,0,2.06,US,1667296810
226,san patricio,28.017,-97.5169,20.47,88,98,4.11,US,1667296811
227,port alfred,-33.5906,26.891,18.99,78,51,4.47,ZA,1667296813
228,pokrovsk,48.282,37.1758,6.43,56,8,5.37,UA,1667296813
229,peniche,39.3558,-9.3811,17.82,95,65,5.11,PT,1667296814
230,pitimbu,-7.4706,-34.8086,26.38,72,87,3.68,BR,1667296816
231,tautira,-17.7333,-149.15,24.79,87,100,9.21,PF,1667296817
232,zyryanka,65.75,150.85,-26.99,99,10,2.82,RU,1667296818
233,soligalich,59.0778,42.2864,2.52,74,62,3.56,RU,1667296820
234,yunhe,34.0833,119.7167,13.36,53,0,3.07,CN,1667296821
235,camacha,33.0833,-16.3333,19.68,83,40,4.63,PT,1667296822
236,wanaka,-44.7,169.15,9.4,83,100,4.68,NZ,1667296560
237,alice springs,-23.7,133.8833,21.75,26,0,3.6,AU,1667296824
238,adrar,20.5022,-10.0711,27.58,13,0,5.44,MR,1667296825
239,talnakh,69.4865,88.3972,-5.44,94,100,8.53,RU,1667296826
240,beeville,28.4008,-97.7483,18.49,94,100,4.63,US,1667296827
241,amurzet,47.6967,131.0981,1.67,56,82,4.87,RU,1667296828
242,payo,-3.7508,103.6372,26.04,88,98,0.24,ID,1667296830
243,dera ghazi khan,30.0561,70.6348,33.0,17,0,2.38,PK,1667296831
244,coquimbo,-29.9533,-71.3436,12.64,77,0,1.28,CL,1667296833
245,orodara,10.9492,-4.9342,29.58,32,4,3.02,BF,1667296834
246,san quintin,30.4833,-115.95,18.4,73,100,1.81,MX,1667296835
247,georgetown,5.4112,100.3354,31.05,74,20,4.12,MY,1667296564
248,faanui,-16.4833,-151.75,24.78,87,100,9.25,PF,1667296837
249,quesnel,52.9999,-122.5029,-5.72,100,100,1.03,CA,1667296450
250,wilmington,34.2257,-77.9447,21.59,92,99,0.45,US,1667296805
251,presidencia roque saenz pena,-26.7852,-60.4388,7.7,47,0,2.11,AR,1667296839
252,zambezi,-13.5432,23.1047,19.88,81,100,3.16,ZM,1667296841
253,caravelas,-17.7125,-39.2481,25.98,76,50,3.34,BR,1667296841
254,badiraguato,25.3667,-107.5167,14.84,71,0,1.96,MX,1667296842
255,iracoubo,5.4802,-53.2011,25.78,88,95,4.91,GF,1667296843
256,asyut,27.181,31.1837,26.26,26,0,5.74,EG,1667296846
257,farafangana,-22.8167,47.8333,26.67,68,13,6.07,MG,1667296847
258,tosya,41.0155,34.0401,14.22,37,1,1.24,TR,1667296848
259,dicabisagan,17.0818,122.4157,27.09,88,85,5.19,PH,1667296849
260,hualmay,-11.0964,-77.6139,15.76,86,22,4.5,PE,1667296850
261,longyearbyen,78.2186,15.6401,-0.09,86,75,2.06,SJ,1667296851
262,sisophon,13.5859,102.9737,25.49,68,87,3.78,KH,1667296852
263,katsuura,35.1333,140.3,17.03,80,100,1.89,JP,1667296853
264,noyabrsk,63.1994,75.4507,-2.28,95,100,5.55,RU,1667296854
265,vranje,42.5514,21.9003,22.02,36,0,1.23,RS,1667296855
266,pacific grove,36.6177,-121.9166,13.01,87,91,1.34,US,1667296633
267,poum,-20.2333,164.0167,26.09,75,1,6.06,NC,1667296856
268,bassano,50.7834,-112.4685,4.01,80,100,0.73,CA,1667296857
269,hare bay,48.8499,-54.0148,1.22,82,59,0.83,CA,1667296858
270,gotsu,35.0,132.2167,15.27,83,10,3.23,JP,1667296858
271,boyolangu,-8.1181,111.8935,25.98,82,81,3.26,ID,1667296701
272,kidal,18.4411,1.4078,28.26,14,100,8.91,ML,1667296860
273,eskil,38.4017,33.4131,16.15,33,5,2.89,TR,1667296861
274,dwarka,22.2394,68.9678,30.64,39,0,4.46,IN,1667296862
275,mount isa,-20.7333,139.5,24.87,16,2,4.63,AU,1667296863
276,anage,-14.6122,-41.1356,24.77,70,69,2.5,BR,1667296864
277,svetlogorsk,52.6333,29.7333,7.98,56,74,1.86,BY,1667296806
278,iquique,-20.2208,-70.1431,16.07,70,2,2.11,CL,1667296866
279,zhigansk,66.7697,123.3711,-24.59,100,13,1.86,RU,1667296867
280,payyannur,12.1,75.2,29.27,65,79,3.41,IN,1667296868
281,tiarei,-17.5333,-149.3333,24.01,87,100,9.73,PF,1667296869
282,turtas,58.9417,69.1325,4.12,91,100,4.34,RU,1667296871
283,takab,36.4009,47.1133,15.02,37,3,11.5,IR,1667296872
284,san isidro,-12.1167,-77.05,15.74,85,50,4.0,PE,1667296873
285,rumford,44.5537,-70.5509,9.5,73,100,1.15,US,1667296874
286,tyrma,50.0833,132.1667,-1.88,86,92,2.49,RU,1667296875
287,acapulco,16.8634,-99.8901,24.35,88,5,1.63,MX,1667296251
288,fez,34.0372,-4.9998,23.14,33,0,1.54,MA,1667296879
289,teya,60.3778,92.6267,-6.79,90,7,1.7,RU,1667296881
290,san rafael,-34.6177,-68.3301,9.4,25,0,3.46,AR,1667296882
291,san policarpo,12.1791,125.5072,27.79,81,56,2.57,PH,1667296883
292,lensk,60.7253,114.9278,-9.91,87,51,1.68,RU,1667296730
293,shawnee,39.05,-95.7669,10.91,60,0,0.89,US,1667296884
294,isangel,-19.55,169.2667,24.89,84,35,2.99,VU,1667296885
295,pringsewu,-5.3582,104.9744,26.15,79,100,2.59,ID,1667296886
296,vila velha,-20.3297,-40.2925,24.41,89,40,1.34,BR,1667296866
297,ketchikan,55.3422,-131.6461,0.26,93,40,0.0,US,1667296888
298,orlik,52.5178,99.825,-8.17,72,11,0.29,RU,1667296889
299,coihaique,-45.5752,-72.0662,2.25,97,72,2.85,CL,1667296889
300,porto santo,33.072,-16.3415,21.21,83,40,4.63,PT,1667296890
301,necochea,-38.5473,-58.7368,5.57,77,4,3.37,AR,1667296333
302,rundu,-17.9333,19.7667,34.96,24,17,1.52,NA,1667296892
303,kahului,20.8947,-156.47,26.58,86,11,3.13,US,1667296893
304,mugla,37.2303,28.3557,21.28,23,0,1.38,TR,1667296894
305,maxixe,-23.8597,35.3472,22.12,89,99,6.9,MZ,1667296896
306,poninka,50.1849,27.5363,11.55,41,72,3.38,UA,1667296897
307,channel-port aux basques,47.5702,-59.1367,8.72,77,97,4.74,CA,1667296897
308,camden,39.7835,-74.9663,15.31,93,100,2.18,US,1667296898
309,zhuanghe,39.7008,122.9911,7.72,33,0,2.42,CN,1667296899
310,zwedru,6.0667,-8.1281,23.59,96,97,1.3,LR,1667296900
311,banjar,-8.19,114.9675,27.3,78,89,1.02,ID,1667296901
312,bambous virieux,-20.3428,57.7575,26.79,66,1,4.9,MU,1667296902
313,amapa,1.0,-52.0,22.65,96,100,0.52,BR,1667296902
314,bima,-8.4667,118.7167,27.28,81,87,1.57,ID,1667296810
315,victoria,22.2855,114.1577,20.74,85,100,8.94,HK,1667296875
316,urumqi,43.801,87.6005,8.53,46,0,3.0,CN,1667296904
317,belen,36.4891,36.2233,20.83,44,0,2.85,TR,1667296905
318,vrangel,42.7297,133.0839,7.64,58,25,5.24,RU,1667296906
319,spencer,43.1414,-95.1444,9.2,52,0,1.54,US,1667296907
320,shache,38.4167,77.2406,18.1,22,98,2.8,CN,1667296908
321,cuamba,-14.8031,36.5372,35.84,23,24,2.97,MZ,1667296909
322,port hedland,-20.3167,118.5667,27.03,36,10,5.14,AU,1667296909
323,dyersburg,36.0345,-89.3856,10.95,86,0,0.0,US,1667296910
324,sawtell,-30.3833,153.1,20.01,45,1,4.12,AU,1667296911
325,coari,-4.085,-63.1414,23.43,95,88,1.08,BR,1667296912
326,wukari,7.85,9.7833,30.52,32,100,2.32,NG,1667296913
327,englewood,39.6478,-104.9878,10.13,42,2,2.16,US,1667296803
328,udachnyy,66.4167,112.4,-18.08,98,64,2.95,RU,1667296914
329,villagarzon,1.0375,-76.6267,20.71,97,62,1.72,CO,1667296915
330,aksarka,66.5606,67.7975,-6.12,94,84,3.11,RU,1667296916
331,imeni poliny osipenko,52.4201,136.4853,3.56,91,100,4.31,RU,1667296918
332,waddan,29.1614,16.139,21.59,40,0,2.27,LY,1667296918
333,green valley,31.8543,-110.9937,18.47,39,80,1.98,US,1667296801
334,northam,51.0333,-4.2167,11.81,96,59,8.57,GB,1667296920
335,kulhudhuffushi,6.6221,73.07,27.71,69,90,5.78,MV,1667296921
336,le port,-20.9373,55.2919,27.98,69,41,2.7,RE,1667296922
337,aleksandrovka,46.8383,32.7612,11.04,36,5,3.56,UA,1667296924
338,lagoa,39.05,-27.9833,17.41,73,100,7.33,PT,1667296925
339,santa cruz,-17.8,-63.1667,15.7,41,75,9.26,BO,1667296436
340,belaya gora,68.5333,146.4167,-27.52,100,57,0.63,RU,1667296927
341,souillac,-20.5167,57.5167,25.73,59,0,6.07,MU,1667296866
342,nha trang,12.25,109.1833,27.0,78,100,2.47,VN,1667296665
343,yarada,17.65,83.2667,30.18,62,40,3.6,IN,1667296929
344,nelson bay,-32.7167,152.15,17.22,84,11,3.58,AU,1667296930
345,mithi,24.7318,69.7981,35.92,15,0,4.29,PK,1667296907
346,hurghada,27.2574,33.8129,28.0,31,19,8.54,EG,1667296932
347,sayaxche,16.5167,-90.1667,19.94,97,36,0.75,GT,1667296932
348,constitucion,-35.3333,-72.4167,10.21,47,0,3.18,CL,1667296933
349,umm kaddadah,13.6017,26.6876,32.13,14,70,9.85,SD,1667296934
350,virginia beach,36.8529,-75.978,18.9,95,100,0.45,US,1667296927
351,cukai,4.25,103.4167,26.67,85,97,0.97,MY,1667296936
352,blackwater,-23.5833,148.8833,24.43,29,28,7.62,AU,1667296674
353,kamen-rybolov,44.7481,132.0403,4.24,41,0,5.35,RU,1667296937
354,epe,6.5841,3.9834,31.62,59,99,0.59,NG,1667296938
355,puerto escondido,15.85,-97.0667,24.73,81,0,1.71,MX,1667296939
356,khatanga,71.9667,102.5,-5.68,79,100,6.5,RU,1667296940
357,aripuana,-9.1667,-60.6333,20.27,97,100,3.43,BR,1667296941
358,mutis,6.2262,-77.4044,24.38,87,71,1.02,CO,1667296941
359,kununurra,-15.7667,128.7333,33.99,21,75,2.06,AU,1667296890
360,salinopolis,-0.6136,-47.3561,27.65,77,100,5.2,BR,1667296943
361,bequimao,-2.4489,-44.7825,26.28,83,100,2.0,BR,1667296944
362,grand gaube,-20.0064,57.6608,26.88,59,1,3.58,MU,1667296944
363,norton shores,43.1689,-86.2639,12.1,94,100,3.09,US,1667296945
364,gigmoto,13.7796,124.39,27.54,84,94,3.16,PH,1667296946
365,huambo,-12.7761,15.7392,24.06,56,85,2.05,AO,1667296947
366,carlisle,40.2015,-77.1889,14.42,91,100,1.53,US,1667296806
367,oktyabrskiy,54.4815,53.471,1.79,69,99,6.7,RU,1667296949
368,lebu,-37.6167,-73.65,9.64,79,0,7.77,CL,1667296949
369,belmonte,-15.8631,-38.8828,25.24,87,92,3.86,BR,1667296950
370,marawi,7.9986,124.2928,21.79,93,100,1.09,PH,1667296951
371,yakeshi,49.2833,120.7333,-8.59,66,2,8.12,CN,1667296952
372,manokwari,-0.8667,134.0833,27.78,79,19,0.92,ID,1667296953
373,mazamari,-11.3258,-74.5308,20.45,97,100,0.37,PE,1667296953
374,qui nhon,13.7667,109.2333,24.95,80,84,6.49,VN,1667296954
375,kuusamo,65.9667,29.1833,-0.98,93,100,1.54,FI,1667296955
376,rorvik,64.8621,11.2373,11.06,76,0,2.57,NO,1667296956
377,gogrial,8.5332,28.1004,35.59,32,61,2.72,SS,1667296957
378,lorengau,-2.0226,147.2712,28.18,67,51,0.59,PG,1667296958
379,terrace,54.5163,-128.6035,0.95,100,100,1.03,CA,1667296837
380,tecoanapa,16.5167,-98.75,24.25,89,4,1.81,MX,1667296960
381,bafra,41.5678,35.9069,16.01,67,82,4.78,TR,1667296754
382,pritzwalk,53.1494,12.1741,15.52,79,100,5.91,DE,1667296962
383,port blair,11.6667,92.75,30.02,66,40,2.57,IN,1667296749
384,san luis de palenque,5.4214,-71.7317,22.38,92,94,2.1,CO,1667296963
385,bonfim,3.0833,-59.95,24.27,87,20,1.83,BR,1667296964
386,walvis bay,-22.9575,14.5053,15.61,63,100,6.26,NA,1667296965
387,ilmajoki,62.7333,22.5667,6.23,97,75,1.03,FI,1667296966
388,tutoia,-2.7619,-42.2744,27.19,75,100,5.51,BR,1667296885
389,klaksvik,62.2266,-6.589,9.51,84,100,7.49,FO,1667296968
390,lugoba,-6.45,38.3333,33.66,29,15,2.86,TZ,1667296968
391,atar,20.5169,-13.0499,30.82,10,0,5.05,MR,1667296969
392,fergus falls,46.283,-96.0776,5.99,61,0,2.06,US,1667296970
393,energeticheskiy,43.4278,77.0222,15.31,44,20,2.0,KZ,1667296971
394,sarkand,45.41,79.9186,11.37,43,12,2.76,KZ,1667296972
395,tura,25.5198,90.2201,26.4,78,2,1.18,IN,1667296973
396,kirakira,-10.4544,161.9205,27.15,81,18,1.8,SB,1667296973
397,bac lieu,9.285,105.7244,27.24,78,94,3.36,VN,1667296974
398,sambava,-14.2667,50.1667,26.58,63,0,5.42,MG,1667296975
399,te anau,-45.4167,167.7167,11.94,68,98,4.72,NZ,1667296976
400,alyangula,-13.8483,136.4192,29.34,80,65,8.69,AU,1667296977
401,bereda,43.2686,-7.5406,11.75,93,70,3.0,ES,1667296978
402,marsa matruh,31.3525,27.2453,22.03,59,41,4.85,EG,1667296979
403,portales,34.1862,-103.3344,9.74,83,0,3.23,US,1667296979
404,rawson,-43.3002,-65.1023,13.79,34,0,4.09,AR,1667296980
405,leshukonskoye,64.8989,45.7622,1.48,83,40,2.67,RU,1667296981
406,porto novo,6.4965,2.6036,31.51,59,97,0.78,BJ,1667296833
407,cairns,-16.9167,145.7667,28.95,82,40,2.57,AU,1667296983
408,sanford,28.8006,-81.2731,23.52,94,100,2.57,US,1667296732
409,kaya,13.0917,-1.0844,31.75,14,17,7.47,BF,1667296985
410,simpang,-1.2667,104.0833,27.99,79,92,0.39,ID,1667296986
411,bulolo,-7.2,146.65,22.82,96,67,1.22,PG,1667296987
412,opelousas,30.5335,-92.0815,14.94,100,0,0.0,US,1667296989
413,quzhou,28.9594,118.8686,17.62,57,100,4.34,CN,1667296990
414,sevierville,35.8681,-83.5618,15.19,91,100,0.0,US,1667296991
415,ramgarh,23.6333,85.5167,30.03,42,3,2.07,IN,1667296992
416,thai binh,20.45,106.3333,25.73,42,94,3.67,VN,1667296816
417,hamilton,39.1834,-84.5333,14.44,95,100,0.45,US,1667296754
418,elko,41.0002,-115.5012,8.46,33,100,2.68,US,1667296995
419,trinidad,-14.8333,-64.9,16.73,44,100,5.25,BO,1667296835
420,jacareacanga,-6.2222,-57.7528,22.67,99,100,1.37,BR,1667296997
421,bushenyi,-0.5853,30.2114,26.26,47,58,2.23,UG,1667296998
422,leningradskiy,69.3833,178.4167,-15.89,89,100,4.81,RU,1667296999
423,rodrigues alves,-7.738,-72.6509,23.75,89,98,0.3,BR,1667297000
424,namibe,-15.1961,12.1522,25.3,59,0,4.69,AO,1667297000
425,fershampenuaz,53.5202,59.8117,6.01,91,100,9.37,RU,1667297001
426,muskegon,43.3,-86.1334,11.92,93,100,3.09,US,1667296856
427,birjand,32.8663,59.2211,25.14,16,98,8.33,IR,1667297003
428,manta,-0.95,-80.7333,21.07,83,92,2.44,EC,1667297003
429,huangmei,30.1924,116.025,20.19,49,0,5.93,CN,1667297004
430,evreux,49.0241,1.1508,14.35,76,0,7.72,FR,1667297005
431,tazovskiy,67.4667,78.7,-4.29,92,99,6.76,RU,1667297006
432,mildura,-34.2,142.15,8.37,79,32,10.98,AU,1667297007
433,pemangkat,1.1667,108.9667,27.65,76,99,2.08,ID,1667297008
434,beyneu,45.3167,55.2,8.5,39,96,11.07,KZ,1667297009
435,alugan,12.2188,125.4808,27.46,82,61,2.51,PH,1667297010
436,sao joao da barra,-21.6403,-41.0511,24.05,89,85,5.11,BR,1667297011
437,nakhon phanom,17.3333,104.4167,24.29,50,98,2.24,TH,1667297012
438,sala,34.0389,-6.8166,22.38,83,40,2.57,MA,1667296858
439,comodoro rivadavia,-45.8667,-67.5,11.83,50,9,3.47,AR,1667297013
440,marrakesh,31.6315,-8.0083,25.04,29,40,1.54,MA,1667297014
441,hasaki,35.7333,140.8333,15.22,78,100,2.34,JP,1667297015
442,tarko-sale,64.9225,77.785,-2.09,97,100,6.06,RU,1667297015
443,sattahip,12.6664,100.9007,31.05,55,20,4.12,TH,1667297017
444,bobon,12.5246,124.5636,26.67,87,37,2.2,PH,1667297018
445,kodinsk,58.6881,99.1844,-4.1,57,19,1.44,RU,1667297018
446,aksu,41.1231,80.2644,16.43,23,6,1.06,CN,1667296826
447,fort-shevchenko,44.5086,50.263,7.51,59,71,11.31,KZ,1667297020
448,bathsheba,13.2167,-59.5167,26.76,82,93,7.02,BB,1667297020
449,olafsvik,64.8945,-23.7142,6.7,84,85,0.92,IS,1667297021
450,cloquet,46.7216,-92.4594,8.63,66,0,0.0,US,1667297022
451,breytovo,58.2993,37.8617,1.6,76,81,3.33,RU,1667297023
452,abu samrah,35.3029,37.1841,24.12,33,0,2.7,SY,1667297024
453,bandarbeyla,9.4942,50.8122,28.17,63,23,6.06,SO,1667297024
454,olga,43.7444,135.2892,6.3,68,97,3.44,RU,1667297025
455,were ilu,10.6,39.4333,19.99,31,8,3.94,ET,1667297026
456,naduvattam,11.4833,76.5667,16.72,75,100,1.89,IN,1667297027
457,taksimo,56.3444,114.8794,-11.29,68,55,1.8,RU,1667297027
458,magadi,12.9667,77.2333,23.09,95,100,2.79,IN,1667296590
459,khandyga,62.6667,135.6,-10.76,92,100,1.28,RU,1667297029
460,bonavista,48.6499,-53.1147,4.9,69,55,3.88,CA,1667297030
461,fort collins,40.5853,-105.0844,10.53,41,0,2.06,US,1667297031
462,thunder bay,48.4001,-89.3168,6.32,75,41,2.24,CA,1667296844
463,mackay,-21.15,149.2,27.05,83,46,6.07,AU,1667296775
464,puerto baquerizo moreno,-0.9,-89.6,19.15,81,79,5.36,EC,1667296971
465,port macquarie,-31.4333,152.9167,19.94,45,40,2.57,AU,1667296756
466,port augusta,-32.5,137.7667,12.52,52,49,9.47,AU,1667297036
467,shahrud,36.4182,54.9763,20.23,32,16,1.71,IR,1667297036
468,garowe,8.4054,48.4845,30.09,41,1,1.93,SO,1667297037
469,mbanza-ngungu,-5.25,14.8667,24.0,80,100,1.7,CD,1667297038
470,moyamba,8.1667,-12.4333,28.91,70,70,0.87,SL,1667297040
471,xanlar,40.5869,46.3158,16.73,37,40,5.14,AZ,1667297041
472,kholtoson,50.2981,103.3097,-7.16,72,78,0.69,RU,1667297042
473,puri,19.8,85.85,31.29,59,33,2.82,IN,1667297044
474,sitrah,26.1547,50.6206,35.12,36,0,3.6,BH,1667297045
475,bulgan,48.8125,103.5347,-4.5,69,49,0.25,MN,1667297046
476,grootfontein,-19.5667,18.1167,30.08,29,77,2.6,NA,1667297046
477,rayong,12.8333,101.4333,30.38,69,100,2.97,TH,1667297047
478,sorland,67.667,12.6934,9.92,88,100,8.05,NO,1667297048
479,yerbogachen,61.2767,108.0108,-5.09,96,100,2.69,RU,1667297049
480,berlevag,70.8578,29.0864,4.0,81,100,6.69,NO,1667297050
481,san vicente,-26.6167,-54.1333,6.54,82,32,3.37,AR,1667297051
482,la asuncion,11.0333,-63.8628,26.01,88,18,5.74,VE,1667297052
483,balabac,7.9868,117.0645,25.09,86,100,2.97,PH,1667297053
484,saurimo,-9.6608,20.3916,25.95,58,100,0.46,AO,1667297054
485,svetlyy,54.675,20.1347,12.76,81,99,2.1,RU,1667297055
486,cap malheureux,-19.9842,57.6142,26.93,59,1,3.58,MU,1667297056
487,omboue,-1.5746,9.2618,25.4,90,100,2.31,GA,1667297056
488,gamba,-2.65,10.0,27.69,75,100,1.88,GA,1667297057
489,kerema,-7.9631,145.7785,27.86,77,99,0.65,PG,1667297058
490,luang prabang,19.8856,102.1347,24.98,61,97,0.58,LA,1667297059
491,najran,17.4924,44.1277,27.98,15,7,3.02,SA,1667297060
492,ambon,-3.6954,128.1814,28.08,83,40,3.6,ID,1667297061
493,teguldet,57.3064,88.1667,0.05,99,100,1.86,RU,1667297062
494,kyzyl,51.7,94.45,-3.34,70,80,0.5,RU,1667297063
495,antofagasta,-23.65,-70.4,14.6,74,4,0.92,CL,1667297063
496,port hawkesbury,45.6169,-61.3485,10.33,92,99,0.89,CA,1667297064
497,oltedal,58.831,6.0466,14.55,85,100,12.13,NO,1667297065
498,krasnaya zarya,52.7825,37.6806,2.99,65,74,6.28,RU,1667297066
499,leh,34.1667,77.5833,4.1,39,85,1.83,IN,1667297068
500,nagato,34.3833,131.2,16.6,79,2,5.67,JP,1667297068
501,mizan teferi,6.9833,35.5833,26.04,53,16,1.07,ET,1667297069
502,djibo,14.1022,-1.6306,31.61,13,55,7.92,BF,1667297070
503,yuscaran,13.9333,-86.85,19.58,93,41,1.84,HN,1667297071
504,malinovoye ozero,51.6753,79.7825,7.84,55,36,3.06,RU,1667297072
505,lazaro cardenas,17.9583,-102.2,24.36,86,47,1.38,MX,1667297072
506,yar-sale,66.8333,70.8333,-6.32,94,75,3.66,RU,1667297073
507,duncan,34.5023,-97.9578,11.88,78,0,2.57,US,1667296874
508,miandrivazo,-19.5167,45.4667,34.4,37,5,1.25,MG,1667297074
509,bundaberg,-24.85,152.35,24.56,99,75,5.66,AU,1667296813
510,kokoda,-8.8785,147.7407,24.39,96,79,0.63,PG,1667297076
511,coueron,47.2151,-1.7217,17.06,73,75,5.66,FR,1667297077
512,jerantut,3.936,102.3626,26.17,93,97,0.66,MY,1667297078
513,hobyo,5.3505,48.5268,28.27,62,23,4.06,SO,1667297079
514,emba,48.8264,58.1442,4.66,61,100,9.76,KZ,1667297080
515,mormugao,15.4,73.8,31.59,51,4,3.6,IN,1667297081
516,utrera,37.1852,-5.7809,19.36,77,40,2.57,ES,1667297082
517,bijie,27.3125,105.2942,14.03,66,0,4.14,CN,1667297082
518,maloy,61.9353,5.1136,12.85,67,100,5.07,NO,1667297083
519,zachary,30.6485,-91.1565,14.85,95,0,1.54,US,1667297057
520,high level,58.5169,-117.136,-4.0,90,100,2.01,CA,1667296858
521,severobaykalsk,55.65,109.3167,-6.84,53,100,1.56,RU,1667297085
522,challans,46.8436,-1.8749,17.2,66,1,9.14,FR,1667297086
523,cayenne,4.9333,-52.3333,26.02,89,75,1.54,GF,1667296860
524,kamaishi,39.2667,141.8833,13.94,88,100,3.5,JP,1667297087
525,atbasar,51.8,68.3333,7.05,55,100,5.82,KZ,1667297088
526,hay river,60.8156,-115.7999,-7.51,90,100,5.07,CA,1667297089
527,alta floresta,-9.8756,-56.0861,20.98,98,100,3.15,BR,1667296797
528,ajdabiya,30.7554,20.2263,23.63,40,0,4.12,LY,1667297090
529,fortuna,40.5982,-124.1573,12.74,86,100,5.14,US,1667297091
530,hitachi,36.6,140.65,15.56,81,100,2.3,JP,1667297092
531,sept-iles,50.2001,-66.3821,5.03,85,100,4.02,CA,1667296950
532,harper,4.375,-7.7169,27.49,76,78,3.43,LR,1667297094
533,panguna,-6.3164,155.4848,21.13,96,37,0.41,PG,1667297094
534,marystown,47.1666,-55.1483,5.77,84,96,3.66,CA,1667297095
535,valente,-11.4122,-39.4619,23.52,75,89,3.4,BR,1667297096
536,ust-ishim,57.6935,71.1665,3.25,91,100,3.78,RU,1667297097
537,dauphin,51.1494,-100.0502,4.69,51,100,0.84,CA,1667297098
538,zacatepec,18.65,-99.2,22.46,94,1,0.26,MX,1667297098
539,kilindoni,-7.9139,39.6668,26.33,70,20,3.94,TZ,1667297099
540,srednekolymsk,67.45,153.6833,-30.71,100,41,0.84,RU,1667297100
541,los llanos de aridane,28.6585,-17.9182,22.29,60,40,3.6,ES,1667296821
542,maceio,-9.6658,-35.7353,25.69,88,20,3.09,BR,1667296885
